region,prefecture,city,link,description,rating,visits,recommendation,latitude,longitude,rating_normalized,visits_normalized,balanced_score,popular_score,hidden_gem_score
Hokkaido,Hokkaido,Niseko,https://www.japan-guide.com/e/e6720.html,Leading snow resort with lots of powder snow.,4.1,373,Recommended,42.804684,140.6873034,0.854166667,0.030533726,0.442350196,0.315910913,0.894521529
Hokkaido,Hokkaido,Sapporo,https://www.japan-guide.com/e/e2163.html,The largest city on the island of Hokkaido.,4,2572,Recommended,43.061936,141.3542924,0.833333333,0.210543549,0.521938441,0.405711089,0.817976424
Hokkaido,Hokkaido,Furano,https://www.japan-guide.com/e/e6825.html,Towns with beautiful lavender and flower fields.,4,886,Recommended,43.3419744,142.383188,0.833333333,0.072527832,0.452930583,0.330952576,0.866281925
Hokkaido,Hokkaido,Noboribetsu,https://www.japan-guide.com/e/e6750.html,Hokkaido's most famous hot spring resort.,4,619,Recommended,42.4127547,141.1064964,0.833333333,0.050671251,0.442002292,0.319113594,0.873931729
Hokkaido,Hokkaido,Hakodate,https://www.japan-guide.com/e/e5350.html,Southernmost city on Hokkaido.,3.9,1408,Recommended,41.768793,140.729008,0.8125,0.115258677,0.463879339,0.345245989,0.837784463
Hokkaido,Hokkaido,Otaru,https://www.japan-guide.com/e/e6700.html,Harbor city near Sapporo with a canal.,3.9,1421,Recommended,43.1906806,140.9946021,0.8125,0.116322855,0.464411428,0.345808008,0.837412001
Hokkaido,Hokkaido,Matsumae,https://www.japan-guide.com/e/e5380.html,The only former castle town on Hokkaido.,3.6,39,,41.430042,140.1103918,0.75,0.003192534,0.376596267,0.264056361,0.836382613
Hokkaido,Hokkaido,Asahikawa,https://www.japan-guide.com/e/e6890.html,City in central Hokkaido famous for its zoo.,3.5,638,,43.770625,142.3649743,0.729166667,0.052226588,0.390696627,0.27996156,0.805679028
Hokkaido,Hokkaido,Rusutsu,https://www.japan-guide.com/e/e6715.html,Attractive ski resort near Niseko.,3.4,146,,42.7374243,140.8754821,0.708333333,0.011951539,0.360142436,0.253419354,0.806233628
Hokkaido,Hokkaido,Jozankei Onsen,https://www.japan-guide.com/e/e6745.html,Hot spring resort in the mountains outside central Sapporo.,3.4,204,,42.9648301,141.1601262,0.708333333,0.016699411,0.362516372,0.255605354,0.804571873
Hokkaido,Hokkaido,Tomamu,https://www.japan-guide.com/e/e6845.html,Large ski resort in central Hokkaido.,3.3,58,,43.0560212,142.6113159,0.6875,0.004747872,0.346123936,0.242746705,0.795213245
Hokkaido,Hokkaido,Kushiro,https://www.japan-guide.com/e/e6790.html,City in eastern Hokkaido near a large marshland,3.2,337,,42.9849503,144.3820491,0.666666667,0.027586771,0.347126719,0.245287601,0.773677963
Hokkaido,Hokkaido,Abashiri,https://www.japan-guide.com/e/e6865.html,Known for its prison and drift ice in winter.,3,500,,44.0206027,144.2732035,0.625,0.040929928,0.332964964,0.235377783,0.741924525
Hokkaido,Hokkaido,Shiretoko,https://www.japan-guide.com/e/e6850.html,National park on an unspoiled peninsula.,4.3,360,Highly Recommended,44.3450893,145.3297798,0.895833333,0.029469548,0.462651441,0.330701539,0.921977325
Hokkaido,Hokkaido,Daisetsuzan,https://www.japan-guide.com/e/e6775.html,Hokkaido's largest and wildest national park.,4.1,363,Highly Recommended,43.5283384,142.9940409,0.854166667,0.029715128,0.441940897,0.31545642,0.894808039
Hokkaido,Hokkaido,Onuma Park,https://www.japan-guide.com/e/e5356.html,National park 20 kilometers north of Hakodate.,3.8,147,Recommended,41.9853726,140.6570209,0.791666667,0.012033399,0.401850033,0.28327552,0.860371644
Hokkaido,Hokkaido,Lake Toya,https://www.japan-guide.com/e/e6725.html,"Site of Mount Usu, an active volcano.",3.6,437,Recommended,42.6019661,140.8956911,0.75,0.035772757,0.392886379,0.279939219,0.824979535
Hokkaido,Hokkaido,Lake Shikotsu,https://www.japan-guide.com/e/e6736.html,Picturesque caldera lake near Sapporo.,3.4,188,Recommended,42.7538546,141.3275269,0.708333333,0.015389653,0.361861493,0.255002319,0.805030288
Tohoku,Aomori,Towada,https://www.japan-guide.com/e/e3776.html,Caldera lake famous for autumn colors.,4,382,Recommended,40.6127405,141.206023,0.833333333,0.031270465,0.432301899,0.308604835,0.880722004
Tohoku,Aomori,Hirosaki,https://www.japan-guide.com/e/e3701.html,Former castle town in Northern Tohoku.,3.7,470,Recommended,40.6030543,140.4640389,0.770833333,0.038474132,0.404653733,0.28906881,0.83757572
Tohoku,Aomori,Shirakami Sanchi,https://www.japan-guide.com/e/e3790.html,Mountain range with virgin beech forests.,3.9,118,,40.4551895,140.1473672,0.8125,0.009659463,0.411079731,0.289476404,0.874744188
Tohoku,Aomori,Aomori,https://www.japan-guide.com/e/e3750.html,City best known for its Nebuta Matsuri.,3.5,813,,40.8222833,140.7472027,0.729166667,0.066552063,0.397859365,0.286751238,0.800665111
Tohoku,Akita,Hachimantai,https://www.japan-guide.com/e/e3651.html,Mountainous region with rustic hot springs.,3.8,261,Recommended,40.1433289,140.8044196,0.791666667,0.021365422,0.406516045,0.288077624,0.857105435
Tohoku,Akita,Kakunodate,https://www.japan-guide.com/e/e3601.html,City with nicely preserved samurai district.,3.7,371,Recommended,39.5917435,140.5711801,0.770833333,0.030370007,0.40060167,0.285008305,0.840412164
Tohoku,Akita,Akita,https://www.japan-guide.com/e/e3625.html,Prefectural capital best known for its festival.,3.2,576,,39.7197629,140.1034669,0.666666667,0.047151277,0.356908972,0.253765553,0.766830386
Tohoku,Iwate,Sanriku Coast,https://www.japan-guide.com/e/e5025.html,Pacific coastline that was hit by the 2011 tsunami.,4,200,Recommended,39.6096396,141.93299,0.833333333,0.016371971,0.424852652,0.300534818,0.885936477
Tohoku,Iwate,Hiraizumi,https://www.japan-guide.com/e/e5000.html,Tohoku's former cultural and political capital.,3.9,468,Recommended,38.9865464,141.1138244,0.8125,0.038310413,0.425405206,0.304607687,0.864716356
Tohoku,Iwate,Appi Kogen,https://www.japan-guide.com/e/e5095.html,Leading ski resort in the Tohoku Region.,3.5,39,Recommended,40.0033679,140.9782562,0.729166667,0.003192534,0.366179601,0.256721462,0.822840946
Tohoku,Iwate,Tono,https://www.japan-guide.com/e/e5060.html,Rural town known for its folktales and legends.,4.2,44,,39.3306091,141.5314591,0.875,0.003601834,0.439300917,0.308298543,0.917489358
Tohoku,Iwate,Kitakami,https://www.japan-guide.com/e/e5077.html,Popular cherry blossom spot in the Tohoku Region.,3.3,93,,39.2866832,141.1135121,0.6875,0.007612967,0.347556483,0.244027044,0.794210462
Tohoku,Iwate,Morioka,https://www.japan-guide.com/e/e5050.html,Prefectural capital famous for noodle dishes.,3,204,,39.7021331,141.1545397,0.625,0.016699411,0.320849705,0.225534136,0.750405206
Tohoku,Yamagata,Yamadera,https://www.japan-guide.com/e/e7940.html,Scenic temple on a steep mountainside.,4.5,403,Highly Recommended,38.3095946,140.434729,0.9375,0.032989522,0.485244761,0.34822799,0.947828667
Tohoku,Yamagata,Dewa Sanzan,https://www.japan-guide.com/e/e7900.html,Three sacred mountains with shrines.,4.4,156,Highly Recommended,38.7016566,139.9829844,0.916666667,0.012770138,0.464718402,0.328442207,0.941363785
Tohoku,Yamagata,Ginzan Onsen,https://www.japan-guide.com/e/e7975.html,"One of Japan's nicest, old-fashioned onsen towns.",4.1,65,Recommended,38.6017889,140.4853461,0.854166667,0.005320891,0.429743779,0.301912536,0.903346022
Tohoku,Yamagata,Zao,https://www.japan-guide.com/e/e7925.html,Volcano with hot spring and ski resort.,3.9,455,Recommended,38.2059569,140.3036231,0.8125,0.037246234,0.424873117,0.304045668,0.865088818
Tohoku,Yamagata,Kaminoyama Onsen,https://www.japan-guide.com/e/e7980.html,Onsen town with castle and fruit farms.,3.7,28,,38.1520989,140.2785301,0.770833333,0.002292076,0.386562705,0.270940092,0.85023944
Tohoku,Yamagata,Sakata,https://www.japan-guide.com/e/e7990.html,Commercial center at the Sea of Japan coast.,3.5,21,,38.9147229,139.8364101,0.729166667,0.001719057,0.365442862,0.256023095,0.823356663
Tohoku,Miyagi,Matsushima,https://www.japan-guide.com/e/e5100.html,Scenic bay dotted by pine clad islets.,4,931,Recommended,38.3801612,141.067129,0.833333333,0.076211526,0.45477243,0.33294791,0.864992633
Tohoku,Miyagi,Sendai,https://www.japan-guide.com/e/e5150.html,Largest city in the Tohoku Region.,3.5,1675,,38.2677554,140.8691498,0.729166667,0.137115259,0.433140963,0.320195253,0.775967993
Tohoku,Fukushima,Aizu,https://www.japan-guide.com/e/e7700.html,Small city known for its samurai history.,3.7,660,Recommended,37.48043,139.942135,0.770833333,0.054027505,0.412430419,0.296861698,0.83213204
Tohoku,Fukushima,Bandai,https://www.japan-guide.com/e/e7750.html,Volcanic mountains with beautiful highlands.,3.4,206,Recommended,37.5621397,139.9888201,0.708333333,0.01686313,0.362598232,0.255680733,0.804514571
Tohoku,Fukushima,Fukushima,https://www.japan-guide.com/e/e7725.html,Prefectural capital with a few attractions.,3.3,274,,37.75454,140.4592144,0.6875,0.022429601,0.3549648,0.250648228,0.78902464
Tohoku,Fukushima,Iwaki,https://www.japan-guide.com/e/e7775.html,City famous for its Hawaiian water park resort.,2.7,141,,37.0504227,140.8876338,0.5625,0.01154224,0.28702112,0.201095131,0.711585216
Kanto,Tokyo Metropolis,Tokyo,https://www.japan-guide.com/e/e2164.html,Japan's capital and largest city.,4.6,12216,Must Visit,35.6768601,139.7638947,0.958333333,1,0.979166667,0.958333333,0.622916667
Kanto,Tokyo Metropolis,Ogasawara Islands,https://www.japan-guide.com/e/e8200.html,Remote islands 1000 kilometers south of Tokyo.,4.5,53,Highly Recommended,24.78033,141.3205867,0.9375,0.004338572,0.470919286,0.330768818,0.9578565
Kanto,Kanagawa,Kamakura,https://www.japan-guide.com/e/e2166.html,Small city full of historic treasures.,4.4,4277,Highly Recommended,35.3192808,139.5469627,0.916666667,0.350114604,0.633390635,0.529443285,0.823293222
Kanto,Kanagawa,Hakone,https://www.japan-guide.com/e/e5200.html,National park with views of Mount Fuji.,4.1,3428,Recommended,35.2323842,139.1069861,0.854166667,0.280615586,0.567391126,0.454758445,0.806992878
Kanto,Kanagawa,Yokohama,https://www.japan-guide.com/e/e2156.html,Japan's second largest city.,4,4779,Recommended,35.4503381,139.6343802,0.833333333,0.391208251,0.612270792,0.503571136,0.754743779
Kanto,Kanagawa,Kawasaki,https://www.japan-guide.com/e/e3250.html,Sandwiched between Tokyo and Yokohama.,2.8,642,,35.5306639,139.7037668,0.583333333,0.052554028,0.31794368,0.224093402,0.710772757
Kanto,Chiba,Boso Peninsula,https://www.japan-guide.com/e/e6430.html,Large peninsula southeast of Tokyo.,3.4,109,,34.900405,139.8880854,0.708333333,0.008922724,0.358628029,0.252024838,0.807293713
Kanto,Chiba,Narita,https://www.japan-guide.com/e/e6400.html,Site of Tokyo's international airport.,2.9,2085,,35.7767683,140.3183376,0.604166667,0.1706778,0.387422233,0.278484928,0.682971103
Kanto,Saitama,Chichibu,https://www.japan-guide.com/e/e6550.html,Rural city known for its festival and shrines.,3.6,87,,35.9914509,139.0857612,0.75,0.007121807,0.378560904,0.265971881,0.835007367
Kanto,Saitama,Kawagoe,https://www.japan-guide.com/e/e6500.html,Former castle town known as the Little Edo.,3.4,1011,,35.9251145,139.4856927,0.708333333,0.082760314,0.395546824,0.286020895,0.781450557
Kanto,Saitama,Saitama,https://www.japan-guide.com/e/e6525.html,City north of Tokyo with a few places of interest.,3,711,,35.8616402,139.6457957,0.625,0.058202358,0.341601179,0.242394708,0.735879175
Kanto,Gunma,Kusatsu Onsen,https://www.japan-guide.com/e/e7400.html,One of Japan's best hot spring towns.,4,631,Recommended,36.6309616,138.5780638,0.833333333,0.051653569,0.442493451,0.319645683,0.873587917
Kanto,Gunma,Manza Onsen,https://www.japan-guide.com/e/e7495.html,Hot spring resort with Japan's most sulfuric waters.,3.8,71,Recommended,36.6400581,138.4999501,0.791666667,0.00581205,0.398739358,0.280074117,0.862549116
Kanto,Gunma,Shima Onsen,https://www.japan-guide.com/e/e7435.html,Calm hot spring town in a mountain valley.,3.7,44,,36.6745035,138.7842033,0.770833333,0.003601834,0.387217583,0.271596335,0.849781025
Kanto,Gunma,Minakami,https://www.japan-guide.com/e/e7460.html,Popular hot spring and outdoor resort.,3.4,294,,36.6785606,138.9991545,0.708333333,0.024066798,0.366200065,0.258997421,0.801993287
Kanto,Gunma,Ikaho Onsen,https://www.japan-guide.com/e/e7475.html,Hot spring resort famous for its stone stairs.,3.3,358,,36.4998945,138.9259109,0.6875,0.029305828,0.358402914,0.253721042,0.78661796
Kanto,Gunma,Tomioka,https://www.japan-guide.com/e/e7415.html,Site of a Japan's first modern silk factory.,3.1,56,,36.2598266,138.8899792,0.645833333,0.004584152,0.325208743,0.227966055,0.768187213
Kanto,Tochigi,Nikko,https://www.japan-guide.com/e/e3800.html,"Site of Nikko Toshogu, Ieyasu's mausoleum.",4.4,3329,Must Visit,36.7197576,139.698139,0.916666667,0.27251146,0.594589064,0.483204745,0.850454322
Kanto,Tochigi,Nasu-Shiobara,https://www.japan-guide.com/e/e3840.html,Resort area with hiking trails and hot springs.,3.2,226,,36.9320427,140.0219772,0.666666667,0.018500327,0.342583497,0.241350142,0.776858219
Kanto,Tochigi,Kinugawa Onsen,https://www.japan-guide.com/e/e3875.html,Hot spring resort with theme parks near Nikko.,3.2,543,,36.8226312,139.716559,0.666666667,0.044449902,0.355558284,0.252594957,0.767775868
Kanto,Tochigi,Utsunomiya,https://www.japan-guide.com/e/e3860.html,Prefectural capital of Tochigi Prefecture.,2.8,77,,36.5549677,139.8828776,0.583333333,0.006303209,0.294818271,0.206556633,0.726960544
Kanto,Ibaraki,Mito,https://www.japan-guide.com/e/e6200.html,Prefectural capital known for its nice garden.,3.2,265,,36.3659174,140.4731743,0.666666667,0.021692862,0.344179764,0.242733573,0.775740832
Kanto,Tokyo Metropolis,Tokyo,https://www.japan-guide.com/e/e2164.html,Japan's capital and largest city.,4.6,12216,Must Visit,35.6768601,139.7638947,0.958333333,1,0.979166667,0.958333333,0.622916667
Kanto,Tokyo Metropolis,Ogasawara Islands,https://www.japan-guide.com/e/e8200.html,Remote islands 1000 kilometers south of Tokyo.,4.5,53,Highly Recommended,24.78033,141.3205867,0.9375,0.004338572,0.470919286,0.330768818,0.9578565
Kanto,Kanagawa,Kamakura,https://www.japan-guide.com/e/e2166.html,Small city full of historic treasures.,4.4,4277,Highly Recommended,35.3192808,139.5469627,0.916666667,0.350114604,0.633390635,0.529443285,0.823293222
Kanto,Kanagawa,Hakone,https://www.japan-guide.com/e/e5200.html,National park with views of Mount Fuji.,4.1,3428,Recommended,35.2323842,139.1069861,0.854166667,0.280615586,0.567391126,0.454758445,0.806992878
Kanto,Kanagawa,Yokohama,https://www.japan-guide.com/e/e2156.html,Japan's second largest city.,4,4779,Recommended,35.4503381,139.6343802,0.833333333,0.391208251,0.612270792,0.503571136,0.754743779
Kanto,Kanagawa,Kawasaki,https://www.japan-guide.com/e/e3250.html,Sandwiched between Tokyo and Yokohama.,2.8,642,,35.5306639,139.7037668,0.583333333,0.052554028,0.31794368,0.224093402,0.710772757
Kanto,Chiba,Boso Peninsula,https://www.japan-guide.com/e/e6430.html,Large peninsula southeast of Tokyo.,3.4,109,,34.9004521,139.8882213,0.708333333,0.008922724,0.358628029,0.252024838,0.807293713
Kanto,Chiba,Narita,https://www.japan-guide.com/e/e6400.html,Site of Tokyo's international airport.,2.9,2085,,35.7767683,140.3183376,0.604166667,0.1706778,0.387422233,0.278484928,0.682971103
Kanto,Saitama,Chichibu,https://www.japan-guide.com/e/e6550.html,Rural city known for its festival and shrines.,3.6,87,,35.9914509,139.0857612,0.75,0.007121807,0.378560904,0.265971881,0.835007367
Kanto,Saitama,Kawagoe,https://www.japan-guide.com/e/e6500.html,Former castle town known as the Little Edo.,3.4,1011,,35.9251145,139.4856927,0.708333333,0.082760314,0.395546824,0.286020895,0.781450557
Kanto,Saitama,Saitama,https://www.japan-guide.com/e/e6525.html,City north of Tokyo with a few places of interest.,3,711,,35.8616402,139.6457957,0.625,0.058202358,0.341601179,0.242394708,0.735879175
Kanto,Gunma,Kusatsu Onsen,https://www.japan-guide.com/e/e7400.html,One of Japan's best hot spring towns.,4,631,Recommended,36.6309616,138.5780638,0.833333333,0.051653569,0.442493451,0.319645683,0.873587917
Kanto,Gunma,Manza Onsen,https://www.japan-guide.com/e/e7495.html,Hot spring resort with Japan's most sulfuric waters.,3.8,71,Recommended,36.6400581,138.4999501,0.791666667,0.00581205,0.398739358,0.280074117,0.862549116
Kanto,Gunma,Shima Onsen,https://www.japan-guide.com/e/e7435.html,Calm hot spring town in a mountain valley.,3.7,44,,36.6745035,138.7842033,0.770833333,0.003601834,0.387217583,0.271596335,0.849781025
Kanto,Gunma,Minakami,https://www.japan-guide.com/e/e7460.html,Popular hot spring and outdoor resort.,3.4,294,,36.6785606,138.9991545,0.708333333,0.024066798,0.366200065,0.258997421,0.801993287
Kanto,Gunma,Ikaho Onsen,https://www.japan-guide.com/e/e7475.html,Hot spring resort famous for its stone stairs.,3.3,358,,36.4971021,138.9189433,0.6875,0.029305828,0.358402914,0.253721042,0.78661796
Kanto,Gunma,Tomioka,https://www.japan-guide.com/e/e7415.html,Site of a Japan's first modern silk factory.,3.1,56,,36.2598266,138.8899792,0.645833333,0.004584152,0.325208743,0.227966055,0.768187213
Kanto,Tochigi,Nikko,https://www.japan-guide.com/e/e3800.html,"Site of Nikko Toshogu, Ieyasu's mausoleum.",4.4,3329,Must Visit,36.7197576,139.698139,0.916666667,0.27251146,0.594589064,0.483204745,0.850454322
Kanto,Tochigi,Nasu-Shiobara,https://www.japan-guide.com/e/e3840.html,Resort area with hiking trails and hot springs.,3.2,226,,36.9320427,140.0219772,0.666666667,0.018500327,0.342583497,0.241350142,0.776858219
Kanto,Tochigi,Kinugawa Onsen,https://www.japan-guide.com/e/e3875.html,Hot spring resort with theme parks near Nikko.,3.2,543,,36.8226118,139.7165879,0.666666667,0.044449902,0.355558284,0.252594957,0.767775868
Kanto,Tochigi,Utsunomiya,https://www.japan-guide.com/e/e3860.html,Prefectural capital of Tochigi Prefecture.,2.8,77,,36.5549677,139.8828776,0.583333333,0.006303209,0.294818271,0.206556633,0.726960544
Kanto,Ibaraki,Mito,https://www.japan-guide.com/e/e6200.html,Prefectural capital known for its nice garden.,3.2,265,,36.3659174,140.4731743,0.666666667,0.021692862,0.344179764,0.242733573,0.775740832
Chubu,Aichi,Nagoya,https://www.japan-guide.com/e/e2155.html,Japan's third largest economic center.,3.3,3561,Recommended,35.1851045,136.8998438,0.6875,0.291502947,0.489501473,0.370890379,0.694848969
Chubu,Aichi,Inuyama,https://www.japan-guide.com/e/e3350.html,Former castle town north of Nagoya.,3.5,658,,35.3609734,136.9845491,0.729166667,0.053863785,0.391515226,0.280737523,0.805106009
Chubu,Shizuoka,Izu Peninsula,https://www.japan-guide.com/e/e6310.html,Hot springs and natural scenery.,3.8,1192,Recommended,34.917385,138.9628947,0.791666667,0.097576948,0.444621807,0.327294805,0.830431401
Chubu,Shizuoka,Shizuoka,https://www.japan-guide.com/e/e6350.html,Prefectural capital with views of Mount Fuji.,3.3,739,,34.9751974,138.3831697,0.6875,0.060494434,0.373997217,0.26765845,0.775701948
Chubu,Shizuoka,Fujinomiya,https://www.japan-guide.com/e/e6365.html,City at the southern base of Mount Fuji.,3.2,266,,35.2221369,138.6214683,0.666666667,0.021774722,0.344220694,0.242769046,0.775712181
Chubu,Shizuoka,Lake Hamanako,https://www.japan-guide.com/e/e6375.html,A seaside lake with hot spring baths.,2.6,493,,34.7391432,137.5660932,0.541666667,0.040356909,0.291011788,0.203792328,0.687958415
Chubu,Gifu,Takayama,https://www.japan-guide.com/e/e5900.html,Preserves one of Japan's nicest old towns.,4.2,1703,Highly Recommended,36.1396246,137.2510322,0.875,0.139407335,0.507203667,0.385537922,0.869957433
Chubu,Gifu,Okuhida,https://www.japan-guide.com/e/e5940.html,Hot springs in the mountains above Takayama.,4,263,Recommended,36.284064,137.5747567,0.833333333,0.021529142,0.427431238,0.303328285,0.884131467
Chubu,Gifu,Gujo-Hachiman,https://www.japan-guide.com/e/e5930.html,Small town in rural Japan with castle.,3.8,267,Recommended,35.7418904,136.9473551,0.791666667,0.021856582,0.406761624,0.288330366,0.85693353
Chubu,Gifu,Furukawa,https://www.japan-guide.com/e/e5975.html,Small town 15 minutes north of Takayama.,3.6,161,Recommended,36.2368469,137.1895961,0.75,0.013179437,0.381589718,0.268924975,0.832887197
Chubu,Gifu,Gero Onsen,https://www.japan-guide.com/e/e5990.html,Famous hot spring resort south of Takayama.,3.7,400,,35.8085595,137.2441513,0.770833333,0.032743942,0.401788638,0.286197746,0.839581287
Chubu,Niigata,Sado Island,https://www.japan-guide.com/e/e7675.html,Large island off the coast of Niigata.,3.9,243,Recommended,38.0673186,138.3514426,0.8125,0.019891945,0.416195972,0.294880433,0.871162819
Chubu,Niigata,Yuzawa,https://www.japan-guide.com/e/e7690.html,One of Japan's leading ski resort towns.,3.6,344,Recommended,36.9338793,138.8170795,0.75,0.02815979,0.389079895,0.276227898,0.827644073
Chubu,Nagano,Kamikochi,https://www.japan-guide.com/e/e6040.html,Popular mountain resort in the Japanese Alps.,4.4,530,Highly Recommended,36.2537562,137.6551723,0.916666667,0.043385724,0.480026195,0.346683994,0.93064833
Chubu,Nagano,Yamanouchi,https://www.japan-guide.com/e/e6025.html,Home of hot spring bathing monkeys.,4.2,358,Highly Recommended,36.7445912,138.4126607,0.875,0.029305828,0.452152914,0.32291769,0.90849296
Chubu,Nagano,Matsumoto,https://www.japan-guide.com/e/e6050.html,City famous for its beautiful original castle.,3.8,1366,Recommended,36.2382047,137.9687141,0.791666667,0.111820563,0.451743615,0.334624331,0.825446136
Chubu,Nagano,Hakuba,https://www.japan-guide.com/e/e6090.html,One of Japan's best ski resorts.,3.7,660,Recommended,36.6981042,137.862068,0.770833333,0.054027505,0.412430419,0.296861698,0.83213204
Chubu,Nagano,Nagano,https://www.japan-guide.com/e/e6000.html,Former olympic city famous for its temple.,3.5,1766,Recommended,36.6485851,138.1947664,0.729166667,0.144564506,0.436865586,0.323725885,0.773360756
Chubu,Nagano,Takato Castle Park,https://www.japan-guide.com/e/e6065.html,Castle ruins covered by cherry trees.,4,35,,35.832734,138.0628243,0.833333333,0.002865095,0.418099214,0.293218593,0.890663883
Chubu,Nagano,Nozawa Onsen,https://www.japan-guide.com/destinations/nozawa-onsen/,Old fashioned hot spring and ski resort.,3.8,230,,36.9172241,138.4640226,0.791666667,0.018827767,0.405247217,0.286771788,0.857993615
Chubu,Nagano,Obuse,https://www.japan-guide.com/e/e6020.html,Pleasant town famous for chestnuts and Hokusai.,3.8,125,,36.6977297,138.3123863,0.791666667,0.010232482,0.400949574,0.282348798,0.861001965
Chubu,Nagano,Norikura,https://www.japan-guide.com/e/e6045.html,Mountain and highland in the Northern Japan Alps.,3.7,110,,36.7815003,137.801417,0.770833333,0.009004584,0.389918959,0.274303339,0.847890062
Chubu,Nagano,Karuizawa,https://www.japan-guide.com/e/e6030.html,Upmarket mountain resort town.,3.5,915,,36.3482938,138.5969968,0.729166667,0.074901768,0.402034217,0.290708651,0.797742714
Chubu,Nagano,Bessho Onsen,https://www.japan-guide.com/e/e6070.html,Small hot spring town with beautiful temples.,3.4,107,,36.3530124,138.1617357,0.708333333,0.008759005,0.358546169,0.251949458,0.807351015
Chubu,Nagano,Togura Kamiyamada,https://www.japan-guide.com/e/e6071.html,Foreigner-friendly onsen town with historic fortress.,3,33,,36.482061,138.1505159,0.625,0.002701375,0.313850688,0.219847434,0.755304519
Chubu,Yamanashi,Mount Fuji,https://www.japan-guide.com/e/e2172.html,The country's most iconic landmark.,4.5,1556,Must Visit,35.4578594,138.8035184,0.9375,0.127373936,0.532436968,0.405743492,0.914794122
Chubu,Yamanashi,Kofu,https://www.japan-guide.com/e/e6950.html,Prefectural capital surrounded by vineyards.,2.9,185,,35.6652481,138.5710441,0.604166667,0.015144073,0.30965537,0.217405537,0.737407908
Chubu,Toyama,Alpine Route,https://www.japan-guide.com/e/e7550.html,Spectacular route through the Northern Alps.,4.5,442,Highly Recommended,36.5763049,137.4939488,0.9375,0.036182056,0.486841028,0.350173441,0.94671128
Chubu,Toyama,Takaoka,https://www.japan-guide.com/e/e7525.html,Famous for its bronze casting industry.,3.1,55,,36.7362147,137.0187306,0.645833333,0.004502292,0.325167813,0.227931691,0.768215864
Chubu,Toyama,Toyama,https://www.japan-guide.com/e/e7500.html,Capital city of Toyama Prefecture.,3,155,,36.6957569,137.2136215,0.625,0.012688278,0.318844139,0.223904613,0.751809103
Chubu,Ishikawa,Kanazawa,https://www.japan-guide.com/e/e2167.html,City rich in culture and history.,4.1,2030,Highly Recommended,36.561627,136.6568822,0.854166667,0.166175508,0.510171087,0.39122036,0.847046906
Chubu,Ishikawa,Kaga Onsen,https://www.japan-guide.com/e/e4275.html,A collection of four historic hot spring towns.,3.4,217,,36.3181355,136.3502821,0.708333333,0.017763589,0.363048461,0.256095319,0.804199411
Chubu,Fukui,Fukui,https://www.japan-guide.com/e/e6600.html,Prefectural capital nearby Eiheiji Temple.,3.2,461,,36.061751,136.2260542,0.666666667,0.037737394,0.35220203,0.249686204,0.770125246
Chubu,Aichi,Nagoya,https://www.japan-guide.com/e/e2155.html,Japan's third largest economic center.,3.3,3561,Recommended,35.1851045,136.8998438,0.6875,0.291502947,0.489501473,0.370890379,0.694848969
Chubu,Aichi,Inuyama,https://www.japan-guide.com/e/e3350.html,Former castle town north of Nagoya.,3.5,658,,35.3609734,136.9845491,0.729166667,0.053863785,0.391515226,0.280737523,0.805106009
Chubu,Shizuoka,Izu Peninsula,https://www.japan-guide.com/e/e6310.html,Hot springs and natural scenery.,3.8,1192,Recommended,34.917385,138.9628947,0.791666667,0.097576948,0.444621807,0.327294805,0.830431401
Chubu,Shizuoka,Shizuoka,https://www.japan-guide.com/e/e6350.html,Prefectural capital with views of Mount Fuji.,3.3,739,,34.9751974,138.3831697,0.6875,0.060494434,0.373997217,0.26765845,0.775701948
Chubu,Shizuoka,Fujinomiya,https://www.japan-guide.com/e/e6365.html,City at the southern base of Mount Fuji.,3.2,266,,35.2221369,138.6214683,0.666666667,0.021774722,0.344220694,0.242769046,0.775712181
Chubu,Shizuoka,Lake Hamanako,https://www.japan-guide.com/e/e6375.html,A seaside lake with hot spring baths.,2.6,493,,34.7391432,137.5660932,0.541666667,0.040356909,0.291011788,0.203792328,0.687958415
Chubu,Gifu,Takayama,https://www.japan-guide.com/e/e5900.html,Preserves one of Japan's nicest old towns.,4.2,1703,Highly Recommended,36.1396246,137.2510322,0.875,0.139407335,0.507203667,0.385537922,0.869957433
Chubu,Gifu,Okuhida,https://www.japan-guide.com/e/e5940.html,Hot springs in the mountains above Takayama.,4,263,Recommended,36.284064,137.5747567,0.833333333,0.021529142,0.427431238,0.303328285,0.884131467
Chubu,Gifu,Gujo-Hachiman,https://www.japan-guide.com/e/e5930.html,Small town in rural Japan with castle.,3.8,267,Recommended,35.7418904,136.9473551,0.791666667,0.021856582,0.406761624,0.288330366,0.85693353
Chubu,Gifu,Furukawa,https://www.japan-guide.com/e/e5975.html,Small town 15 minutes north of Takayama.,3.6,161,Recommended,36.2368469,137.1895961,0.75,0.013179437,0.381589718,0.268924975,0.832887197
Chubu,Gifu,Gero Onsen,https://www.japan-guide.com/e/e5990.html,Famous hot spring resort south of Takayama.,3.7,400,,35.8085595,137.2441513,0.770833333,0.032743942,0.401788638,0.286197746,0.839581287
Chubu,Niigata,Sado Island,https://www.japan-guide.com/e/e7675.html,Large island off the coast of Niigata.,3.9,243,Recommended,38.0673186,138.3514426,0.8125,0.019891945,0.416195972,0.294880433,0.871162819
Chubu,Niigata,Yuzawa,https://www.japan-guide.com/e/e7690.html,One of Japan's leading ski resort towns.,3.6,344,Recommended,36.9338793,138.8170795,0.75,0.02815979,0.389079895,0.276227898,0.827644073
Chubu,Nagano,Kamikochi,https://www.japan-guide.com/e/e6040.html,Popular mountain resort in the Japanese Alps.,4.4,530,Highly Recommended,36.2537562,137.6551723,0.916666667,0.043385724,0.480026195,0.346683994,0.93064833
Chubu,Nagano,Yamanouchi,https://www.japan-guide.com/e/e6025.html,Home of hot spring bathing monkeys.,4.2,358,Highly Recommended,36.7445912,138.4126607,0.875,0.029305828,0.452152914,0.32291769,0.90849296
Chubu,Nagano,Matsumoto,https://www.japan-guide.com/e/e6050.html,City famous for its beautiful original castle.,3.8,1366,Recommended,36.2382047,137.9687141,0.791666667,0.111820563,0.451743615,0.334624331,0.825446136
Chubu,Nagano,Hakuba,https://www.japan-guide.com/e/e6090.html,One of Japan's best ski resorts.,3.7,660,Recommended,36.6981042,137.862068,0.770833333,0.054027505,0.412430419,0.296861698,0.83213204
Chubu,Nagano,Nagano,https://www.japan-guide.com/e/e6000.html,Former olympic city famous for its temple.,3.5,1766,Recommended,36.6485851,138.1947664,0.729166667,0.144564506,0.436865586,0.323725885,0.773360756
Chubu,Nagano,Takato Castle Park,https://www.japan-guide.com/e/e6065.html,Castle ruins covered by cherry trees.,4,35,,35.832734,138.0628243,0.833333333,0.002865095,0.418099214,0.293218593,0.890663883
Chubu,Nagano,Nozawa Onsen,https://www.japan-guide.com/destinations/nozawa-onsen/,Old fashioned hot spring and ski resort.,3.8,230,,36.9172241,138.4640226,0.791666667,0.018827767,0.405247217,0.286771788,0.857993615
Chubu,Nagano,Obuse,https://www.japan-guide.com/e/e6020.html,Pleasant town famous for chestnuts and Hokusai.,3.8,125,,36.6977297,138.3123863,0.791666667,0.010232482,0.400949574,0.282348798,0.861001965
Chubu,Nagano,Norikura,https://www.japan-guide.com/e/e6045.html,Mountain and highland in the Northern Japan Alps.,3.7,110,,36.7815003,137.801417,0.770833333,0.009004584,0.389918959,0.274303339,0.847890062
Chubu,Nagano,Karuizawa,https://www.japan-guide.com/e/e6030.html,Upmarket mountain resort town.,3.5,915,,36.3482938,138.5969968,0.729166667,0.074901768,0.402034217,0.290708651,0.797742714
Chubu,Nagano,Bessho Onsen,https://www.japan-guide.com/e/e6070.html,Small hot spring town with beautiful temples.,3.4,107,,36.3530124,138.1617357,0.708333333,0.008759005,0.358546169,0.251949458,0.807351015
Chubu,Nagano,Togura Kamiyamada,https://www.japan-guide.com/e/e6071.html,Foreigner-friendly onsen town with historic fortress.,3,33,,36.482061,138.1505159,0.625,0.002701375,0.313850688,0.219847434,0.755304519
Chubu,Yamanashi,Mount Fuji,https://www.japan-guide.com/e/e2172.html,The country's most iconic landmark.,4.5,1556,Must Visit,35.4578594,138.8035184,0.9375,0.127373936,0.532436968,0.405743492,0.914794122
Chubu,Yamanashi,Kofu,https://www.japan-guide.com/e/e6950.html,Prefectural capital surrounded by vineyards.,2.9,185,,35.6652481,138.5710441,0.604166667,0.015144073,0.30965537,0.217405537,0.737407908
Chubu,Toyama,Alpine Route,https://www.japan-guide.com/e/e7550.html,Spectacular route through the Northern Alps.,4.5,442,Highly Recommended,36.5771869,137.4942412,0.9375,0.036182056,0.486841028,0.350173441,0.94671128
Chubu,Toyama,Takaoka,https://www.japan-guide.com/e/e7525.html,Famous for its bronze casting industry.,3.1,55,,36.7362147,137.0187306,0.645833333,0.004502292,0.325167813,0.227931691,0.768215864
Chubu,Toyama,Toyama,https://www.japan-guide.com/e/e7500.html,Capital city of Toyama Prefecture.,3,155,,36.6957569,137.2136215,0.625,0.012688278,0.318844139,0.223904613,0.751809103
Chubu,Ishikawa,Kanazawa,https://www.japan-guide.com/e/e2167.html,City rich in culture and history.,4.1,2030,Highly Recommended,36.561627,136.6568822,0.854166667,0.166175508,0.510171087,0.39122036,0.847046906
Chubu,Ishikawa,Kaga Onsen,https://www.japan-guide.com/e/e4275.html,A collection of four historic hot spring towns.,3.4,217,,36.3181355,136.3502821,0.708333333,0.017763589,0.363048461,0.256095319,0.804199411
Chubu,Fukui,Fukui,https://www.japan-guide.com/e/e6600.html,Prefectural capital nearby Eiheiji Temple.,3.2,461,,36.061751,136.2260542,0.666666667,0.037737394,0.35220203,0.249686204,0.770125246
Kansai,Kyoto,Kyoto,https://www.japan-guide.com/e/e2158.html,For over 1000 years the capital of Japan.,4.8,9699,Must Visit,34.9853497,135.758766,1,0.793958743,0.896979371,0.866073183,0.72211444
Kansai,Kyoto,Uji,https://www.japan-guide.com/e/e3975.html,City south of Kyoto known for its temple and tea.,4,1455,Recommended,34.885124,135.7995651,0.833333333,0.11910609,0.476219712,0.356182466,0.849979535
Kansai,Kyoto,Amanohashidate,https://www.japan-guide.com/e/e3990.html,One of Japan's three most scenic views.,3.9,593,Recommended,35.5680023,135.1906382,0.8125,0.048542895,0.430521447,0.310011716,0.861134987
Kansai,Kyoto,Miyama,https://www.japan-guide.com/e/e3985.html,Rural town with lots of thatched roof houses.,4,42,,35.0931801,135.764881,0.833333333,0.003438114,0.418385724,0.293528978,0.890463327
Kansai,Osaka,Osaka,https://www.japan-guide.com/e/e2157.html,Largest city of the Kinki Region.,4.1,7535,Highly Recommended,34.6937569,135.5014539,0.854166667,0.616814014,0.735490341,0.641418614,0.689323428
Kansai,Nara,Nara,https://www.japan-guide.com/e/e2165.html,Japan's first permanent capital.,4.4,5928,Must Visit,34.6845445,135.8048359,0.916666667,0.485265226,0.700965946,0.60997053,0.775990504
Kansai,Nara,Yoshino,https://www.japan-guide.com/e/e4150.html,Japan's most famous cherry blossom spot.,4.1,370,Recommended,34.3959797,135.857514,0.854166667,0.030288147,0.442227407,0.315774565,0.894607482
Kansai,Hyogo,Kinosaki,https://www.japan-guide.com/e/e3525.html,"Pleasant, old-fashioned hot spring resort.",4.1,502,Highly Recommended,35.6285958,134.8138268,0.854166667,0.041093648,0.447630157,0.321773869,0.890825557
Kansai,Hyogo,Himeji,https://www.japan-guide.com/e/e3500.html,Site of Japan's most beautiful feudal castle.,4.1,3022,Highly Recommended,34.8153529,134.6854793,0.854166667,0.247380485,0.550773576,0.43630604,0.818625164
Kansai,Hyogo,Takeda Castle Ruins,https://www.japan-guide.com/e/e3592.html,Hilltop castle ruins sometimes floating on a sea of clouds.,4.4,32,Recommended,35.2988984,134.8358992,0.916666667,0.002619515,0.459643091,0.322394128,0.944916503
Kansai,Hyogo,Kobe,https://www.japan-guide.com/e/e2159.html,"Harbor city, recovered from 1995 earthquake.",3.8,3619,Recommended,34.6932379,135.1943764,0.791666667,0.296250819,0.543958743,0.429529067,0.760895547
Kansai,Shiga,Omi Hachiman,https://www.japan-guide.com/e/e7075.html,Former merchant town with pretty canal,3.8,34,Recommended,35.1221994,136.1039569,0.791666667,0.002783235,0.397224951,0.27851554,0.863609201
Kansai,Shiga,Hikone,https://www.japan-guide.com/e/e7000.html,Castle town at the shores of Lake Biwa.,3.6,762,,35.2744066,136.2596539,0.75,0.06237721,0.406188605,0.29290889,0.815667976
Kansai,Shiga,Koka,https://www.japan-guide.com/e/e7025.html,Rural city known as a homeland of the ninja.,3.1,136,,34.9662392,136.1668719,0.645833333,0.01113294,0.328483137,0.230715182,0.765895138
Kansai,Wakayama,Kumano,https://www.japan-guide.com/e/e4950.html,Pilgrimage destination on the Kii Peninsula.,4.2,395,Recommended,33.6684286,135.8904398,0.875,0.032334643,0.453667322,0.324640328,0.907432875
Kansai,Mie,Ise Shima,https://www.japan-guide.com/e/e4310.html,Site of Japan's most sacred Shinto shrines.,3.8,1390,Highly Recommended,34.3085635,136.8186738,0.791666667,0.1137852,0.452725933,0.335635301,0.824758513
Kansai,Mie,Iga Ueno,https://www.japan-guide.com/e/e4350.html,Former castle town famous for ninja.,3.4,606,Recommended,34.7889966,136.1235104,0.708333333,0.049607073,0.378970203,0.27075659,0.793054191
Kansai,Kyoto,Kyoto,https://www.japan-guide.com/e/e2158.html,For over 1000 years the capital of Japan.,4.8,9699,Must Visit,34.9853497,135.758766,1,0.793958743,0.896979371,0.866073183,0.72211444
Kansai,Kyoto,Uji,https://www.japan-guide.com/e/e3975.html,City south of Kyoto known for its temple and tea.,4,1455,Recommended,34.885124,135.7995651,0.833333333,0.11910609,0.476219712,0.356182466,0.849979535
Kansai,Kyoto,Amanohashidate,https://www.japan-guide.com/e/e3990.html,One of Japan's three most scenic views.,3.9,593,Recommended,35.5680023,135.1906382,0.8125,0.048542895,0.430521447,0.310011716,0.861134987
Kansai,Kyoto,Miyama,https://www.japan-guide.com/e/e3985.html,Rural town with lots of thatched roof houses.,4,42,,35.0931801,135.764881,0.833333333,0.003438114,0.418385724,0.293528978,0.890463327
Kansai,Osaka,Osaka,https://www.japan-guide.com/e/e2157.html,Largest city of the Kinki Region.,4.1,7535,Highly Recommended,34.6937569,135.5014539,0.854166667,0.616814014,0.735490341,0.641418614,0.689323428
Kansai,Nara,Nara,https://www.japan-guide.com/e/e2165.html,Japan's first permanent capital.,4.4,5928,Must Visit,34.6845445,135.8048359,0.916666667,0.485265226,0.700965946,0.60997053,0.775990504
Kansai,Nara,Yoshino,https://www.japan-guide.com/e/e4150.html,Japan's most famous cherry blossom spot.,4.1,370,Recommended,34.3959797,135.857514,0.854166667,0.030288147,0.442227407,0.315774565,0.894607482
Kansai,Hyogo,Kinosaki,https://www.japan-guide.com/e/e3525.html,"Pleasant, old-fashioned hot spring resort.",4.1,502,Highly Recommended,35.6285958,134.8138268,0.854166667,0.041093648,0.447630157,0.321773869,0.890825557
Kansai,Hyogo,Himeji,https://www.japan-guide.com/e/e3500.html,Site of Japan's most beautiful feudal castle.,4.1,3022,Highly Recommended,34.8153529,134.6854793,0.854166667,0.247380485,0.550773576,0.43630604,0.818625164
Kansai,Hyogo,Takeda Castle Ruins,https://www.japan-guide.com/e/e3592.html,Hilltop castle ruins sometimes floating on a sea of clouds.,4.4,32,Recommended,35.2988984,134.8358992,0.916666667,0.002619515,0.459643091,0.322394128,0.944916503
Kansai,Hyogo,Kobe,https://www.japan-guide.com/e/e2159.html,"Harbor city, recovered from 1995 earthquake.",3.8,3619,Recommended,34.6932379,135.1943764,0.791666667,0.296250819,0.543958743,0.429529067,0.760895547
Kansai,Shiga,Omi Hachiman,https://www.japan-guide.com/e/e7075.html,Former merchant town with pretty canal,3.8,34,Recommended,35.1221994,136.1039569,0.791666667,0.002783235,0.397224951,0.27851554,0.863609201
Kansai,Shiga,Hikone,https://www.japan-guide.com/e/e7000.html,Castle town at the shores of Lake Biwa.,3.6,762,,35.2744066,136.2596539,0.75,0.06237721,0.406188605,0.29290889,0.815667976
Kansai,Shiga,Koka,https://www.japan-guide.com/e/e7025.html,Rural city known as a homeland of the ninja.,3.1,136,,34.9662392,136.1668719,0.645833333,0.01113294,0.328483137,0.230715182,0.765895138
Kansai,Wakayama,Kumano,https://www.japan-guide.com/e/e4950.html,Pilgrimage destination on the Kii Peninsula.,4.2,395,Recommended,33.6684286,135.8904398,0.875,0.032334643,0.453667322,0.324640328,0.907432875
Kansai,Mie,Ise Shima,https://www.japan-guide.com/e/e4310.html,Site of Japan's most sacred Shinto shrines.,3.8,1390,Highly Recommended,34.3085635,136.8186738,0.791666667,0.1137852,0.452725933,0.335635301,0.824758513
Kansai,Mie,Iga Ueno,https://www.japan-guide.com/e/e4350.html,Former castle town famous for ninja.,3.4,606,Recommended,34.7889966,136.1235104,0.708333333,0.049607073,0.378970203,0.27075659,0.793054191
Chugoku,Okayama,Inujima Island,https://www.japan-guide.com/e/e5725.html,Small island turned into a modern art site.,4.3,53,Recommended,34.5635798,134.1031328,0.895833333,0.004338572,0.450085953,0.316067981,0.930773166
Chugoku,Okayama,Bitchu-Takahashi,https://www.japan-guide.com/e/e5775.html,Pretty town with original mountaintop castle.,4,124,Recommended,34.7886578,133.616349,0.833333333,0.010150622,0.421741978,0.29716492,0.888113949
Chugoku,Okayama,Kurashiki,https://www.japan-guide.com/e/e5750.html,"City with a picturesque, historic canal area.",3.7,997,Recommended,34.5850791,133.7719957,0.770833333,0.081614276,0.426223805,0.31068382,0.82247667
Chugoku,Okayama,Okayama,https://www.japan-guide.com/e/e5700.html,Famous for one of Japan's three best gardens.,3.5,1402,,34.6553944,133.9194595,0.729166667,0.114767518,0.421967092,0.309603355,0.783789702
Chugoku,Hiroshima,Miyajima,https://www.japan-guide.com/e/e3401.html,Island known for its shrine and large torii gate.,4.7,3125,Must Visit,34.271448,132.3088722,0.979166667,0.25581205,0.617489358,0.505522044,0.896924116
Chugoku,Hiroshima,Hiroshima,https://www.japan-guide.com/e/e2160.html,Regional capital with a tragic history.,4.2,4649,Highly Recommended,34.3970993,132.4758627,0.875,0.38056647,0.627783235,0.52269718,0.785551735
Chugoku,Hiroshima,Onomichi,https://www.japan-guide.com/e/e3475.html,Port town with many slopes and temples.,3.7,516,Recommended,34.4088519,133.2051549,0.770833333,0.042239686,0.406536509,0.290955509,0.836257777
Chugoku,Hiroshima,Tomonoura,https://www.japan-guide.com/e/e3432.html,"Picturesque, old-fashioned fishing town.",3.5,99,Recommended,34.3808768,133.3803274,0.729166667,0.008104126,0.368635396,0.259049351,0.821121889
Chugoku,Hiroshima,Fukuyama,https://www.japan-guide.com/e/e3430.html,Second largest city in Hiroshima Prefecture.,3.2,141,,34.4857039,133.3623097,0.666666667,0.01154224,0.339104453,0.238334971,0.779293549
Chugoku,Yamaguchi,Akiyoshidai,https://www.japan-guide.com/e/e6130.html,Karst plateau with large limestone cave.,3.8,152,Recommended,34.2341672,131.3060432,0.791666667,0.012442698,0.402054682,0.283486138,0.860228389
Chugoku,Yamaguchi,Hagi,https://www.japan-guide.com/e/e6150.html,Castle town with preserved samurai district.,3.6,421,Recommended,34.4074815,131.399194,0.75,0.034462999,0.3922315,0.279300712,0.82543795
Chugoku,Yamaguchi,Iwakuni,https://www.japan-guide.com/e/e6175.html,Site of the picturesque Kintai-kyo Bridge.,3.6,577,Recommended,34.1664995,132.2191163,0.75,0.047233137,0.398616568,0.285526154,0.820968402
Chugoku,Yamaguchi,Motonosumi Shrine,https://www.japan-guide.com/destinations/motonosumi-shrine/,Remote shrine along the coast with tunnel of torii gates,3.9,13,,34.4200826,131.0631588,0.8125,0.001064178,0.406782089,0.284937019,0.877752538
Chugoku,Yamaguchi,Yamaguchi,https://www.japan-guide.com/e/e6100.html,Pleasant city at the western end of Honshu.,3.2,588,,34.1781317,131.4737077,0.666666667,0.048133595,0.357400131,0.254191225,0.766486575
Chugoku,Yamaguchi,Shimonoseki,https://www.japan-guide.com/e/e6140.html,City at the westernmost tip of Honshu.,3.2,32,,33.9577116,130.9415455,0.666666667,0.002619515,0.334643091,0.234468457,0.782416503
Chugoku,Tottori,Mount Daisen,https://www.japan-guide.com/e/e8150.html,Tallest mountain in the Chugoku Region.,3.5,186,,35.0810906,138.9734057,0.729166667,0.015225933,0.3721963,0.262424791,0.818629257
Chugoku,Tottori,Tottori,https://www.japan-guide.com/e/e8100.html,Prefectural capital known for its sand dunes.,3.4,504,,35.4943948,134.2219282,0.708333333,0.041257367,0.37479535,0.266912246,0.795976588
Chugoku,Shimane,Izumo,https://www.japan-guide.com/e/e5830.html,"Site of Izumo Taisha, Japan's oldest shrine.",3.8,426,Recommended,35.3668891,132.7548827,0.791666667,0.034872299,0.413269483,0.295028037,0.852378029
Chugoku,Shimane,Matsue,https://www.japan-guide.com/e/e5800.html,Former castle town near Izumo Taisha.,3.8,604,Recommended,35.468115,133.048768,0.791666667,0.049443353,0.42055501,0.302526059,0.84727816
Chugoku,Shimane,Tsuwano,https://www.japan-guide.com/e/e5875.html,Rural town with nice samurai district.,3.8,100,,34.4692243,131.7752911,0.791666667,0.008185986,0.399926326,0.281295705,0.861718238
Chugoku,Shimane,Iwami Ginzan,https://www.japan-guide.com/e/e5850.html,Former silver mine with world heritage status.,3.5,154,,35.0999401,132.4287495,0.729166667,0.012606418,0.370886542,0.26118325,0.819546087
Chugoku,Okayama,Inujima Island,https://www.japan-guide.com/e/e5725.html,Small island turned into a modern art site.,4.3,53,Recommended,34.5635798,134.1031328,0.895833333,0.004338572,0.450085953,0.316067981,0.930773166
Chugoku,Okayama,Bitchu-Takahashi,https://www.japan-guide.com/e/e5775.html,Pretty town with original mountaintop castle.,4,124,Recommended,34.7886578,133.616349,0.833333333,0.010150622,0.421741978,0.29716492,0.888113949
Chugoku,Okayama,Kurashiki,https://www.japan-guide.com/e/e5750.html,"City with a picturesque, historic canal area.",3.7,997,Recommended,34.5850791,133.7719957,0.770833333,0.081614276,0.426223805,0.31068382,0.82247667
Chugoku,Okayama,Okayama,https://www.japan-guide.com/e/e5700.html,Famous for one of Japan's three best gardens.,3.5,1402,,34.6553944,133.9194595,0.729166667,0.114767518,0.421967092,0.309603355,0.783789702
Chugoku,Hiroshima,Miyajima,https://www.japan-guide.com/e/e3401.html,Island known for its shrine and large torii gate.,4.7,3125,Must Visit,34.271448,132.3088722,0.979166667,0.25581205,0.617489358,0.505522044,0.896924116
Chugoku,Hiroshima,Hiroshima,https://www.japan-guide.com/e/e2160.html,Regional capital with a tragic history.,4.2,4649,Highly Recommended,34.3970993,132.4758627,0.875,0.38056647,0.627783235,0.52269718,0.785551735
Chugoku,Hiroshima,Onomichi,https://www.japan-guide.com/e/e3475.html,Port town with many slopes and temples.,3.7,516,Recommended,34.4088519,133.2051549,0.770833333,0.042239686,0.406536509,0.290955509,0.836257777
Chugoku,Hiroshima,Tomonoura,https://www.japan-guide.com/e/e3432.html,"Picturesque, old-fashioned fishing town.",3.5,99,Recommended,34.3808768,133.3803274,0.729166667,0.008104126,0.368635396,0.259049351,0.821121889
Chugoku,Hiroshima,Fukuyama,https://www.japan-guide.com/e/e3430.html,Second largest city in Hiroshima Prefecture.,3.2,141,,34.4857039,133.3623097,0.666666667,0.01154224,0.339104453,0.238334971,0.779293549
Chugoku,Yamaguchi,Akiyoshidai,https://www.japan-guide.com/e/e6130.html,Karst plateau with large limestone cave.,3.8,152,Recommended,34.2341672,131.3060432,0.791666667,0.012442698,0.402054682,0.283486138,0.860228389
Chugoku,Yamaguchi,Hagi,https://www.japan-guide.com/e/e6150.html,Castle town with preserved samurai district.,3.6,421,Recommended,34.4074815,131.399194,0.75,0.034462999,0.3922315,0.279300712,0.82543795
Chugoku,Yamaguchi,Iwakuni,https://www.japan-guide.com/e/e6175.html,Site of the picturesque Kintai-kyo Bridge.,3.6,577,Recommended,34.1664995,132.2191163,0.75,0.047233137,0.398616568,0.285526154,0.820968402
Chugoku,Yamaguchi,Motonosumi Shrine,https://www.japan-guide.com/destinations/motonosumi-shrine/,Remote shrine along the coast with tunnel of torii gates,3.9,13,,34.4200826,131.0631588,0.8125,0.001064178,0.406782089,0.284937019,0.877752538
Chugoku,Yamaguchi,Yamaguchi,https://www.japan-guide.com/e/e6100.html,Pleasant city at the western end of Honshu.,3.2,588,,34.1781317,131.4737077,0.666666667,0.048133595,0.357400131,0.254191225,0.766486575
Chugoku,Yamaguchi,Shimonoseki,https://www.japan-guide.com/e/e6140.html,City at the westernmost tip of Honshu.,3.2,32,,33.9577116,130.9415455,0.666666667,0.002619515,0.334643091,0.234468457,0.782416503
Chugoku,Tottori,Mount Daisen,https://www.japan-guide.com/e/e8150.html,Tallest mountain in the Chugoku Region.,3.5,186,,35.0810906,138.9734057,0.729166667,0.015225933,0.3721963,0.262424791,0.818629257
Chugoku,Tottori,Tottori,https://www.japan-guide.com/e/e8100.html,Prefectural capital known for its sand dunes.,3.4,504,,35.4943948,134.2219282,0.708333333,0.041257367,0.37479535,0.266912246,0.795976588
Chugoku,Shimane,Izumo,https://www.japan-guide.com/e/e5830.html,"Site of Izumo Taisha, Japan's oldest shrine.",3.8,426,Recommended,35.3668891,132.7548827,0.791666667,0.034872299,0.413269483,0.295028037,0.852378029
Chugoku,Shimane,Matsue,https://www.japan-guide.com/e/e5800.html,Former castle town near Izumo Taisha.,3.8,604,Recommended,35.468115,133.048768,0.791666667,0.049443353,0.42055501,0.302526059,0.84727816
Chugoku,Shimane,Tsuwano,https://www.japan-guide.com/e/e5875.html,Rural town with nice samurai district.,3.8,100,,34.4692243,131.7752911,0.791666667,0.008185986,0.399926326,0.281295705,0.861718238
Chugoku,Shimane,Iwami Ginzan,https://www.japan-guide.com/e/e5850.html,Former silver mine with world heritage status.,3.5,154,,35.0999401,132.4287495,0.729166667,0.012606418,0.370886542,0.26118325,0.819546087
Shikoku,Kagawa,Naoshima,https://www.japan-guide.com/e/e5475.html,Small island with a lot of modern art.,4.2,312,Highly Recommended,34.4598081,133.9956762,0.875,0.025540275,0.450270138,0.320776031,0.909810904
Shikoku,Kagawa,Kotohira,https://www.japan-guide.com/e/e5450.html,Site of Shikoku's most popular shrine.,3.7,391,Recommended,34.191594,133.8232497,0.770833333,0.032007204,0.401420269,0.285828609,0.839839145
Shikoku,Kagawa,Takamatsu,https://www.japan-guide.com/e/e5400.html,Capital of Kagawa Prefecture.,3.4,859,Recommended,34.3425592,134.0465338,0.708333333,0.070317616,0.389325475,0.280292069,0.785805501
Shikoku,Kagawa,Shodoshima,https://www.japan-guide.com/e/e5430.html,Island in the Seto Inland Sea know for olives.,3.6,223,,34.4897754,134.2604024,0.75,0.018254748,0.384127374,0.27139919,0.831110838
Shikoku,Kagawa,Marugame,https://www.japan-guide.com/e/e5465.html,"Port city in Kagawa, known for its castle.",3,148,,34.2888128,133.7982421,0.625,0.012115259,0.318557629,0.223671824,0.752009659
Shikoku,Ehime,Matsuyama,https://www.japan-guide.com/e/e5500.html,Largest city of Shikoku with a beautiful castle.,3.8,809,Recommended,33.8395188,132.7653521,0.791666667,0.066224623,0.428945645,0.311161421,0.841404715
Shikoku,Ehime,Uchiko,https://www.japan-guide.com/e/e5550.html,Countryside town formerly known for its wax.,3.6,126,Recommended,33.5495987,132.6500056,0.75,0.010314342,0.380157171,0.267528242,0.83388998
Shikoku,Ehime,Ozu,https://www.japan-guide.com/e/e5525.html,"Small city with nice castle, old town and villa.",3.2,55,Recommended,33.506488,132.5446842,0.666666667,0.004502292,0.335584479,0.235284327,0.781757531
Shikoku,Ehime,Uwajima,https://www.japan-guide.com/e/e5575.html,Secluded port town with original castle.,3.2,82,,33.2232315,132.5606514,0.666666667,0.006712508,0.336689587,0.236242087,0.780983955
Shikoku,Kochi,Kochi,https://www.japan-guide.com/e/e5600.html,Nice city with a southern flair.,3.7,724,Recommended,33.5680384,133.5394221,0.770833333,0.059266536,0.415049935,0.29948667,0.830298379
Shikoku,Tokushima,Iya Valley,https://www.japan-guide.com/e/e7825.html,Remote valley in the center of Shikoku.,4.2,151,Recommended,33.9071476,133.8141785,0.875,0.012360838,0.443680419,0.313280227,0.914423707
Shikoku,Tokushima,Naruto,https://www.japan-guide.com/e/e7850.html,City well known for its whirlpools.,3.3,432,,34.1725784,134.608408,0.6875,0.035363458,0.361431729,0.256428045,0.78449779
Shikoku,Tokushima,Tokushima,https://www.japan-guide.com/e/e7800.html,A city best known for its dance festival.,3.1,453,,34.0698307,134.5550353,0.645833333,0.037082515,0.341457924,0.241608597,0.756812787
Shikoku,Kagawa,Naoshima,https://www.japan-guide.com/e/e5475.html,Small island with a lot of modern art.,4.2,312,Highly Recommended,34.4598081,133.9956762,0.875,0.025540275,0.450270138,0.320776031,0.909810904
Shikoku,Kagawa,Kotohira,https://www.japan-guide.com/e/e5450.html,Site of Shikoku's most popular shrine.,3.7,391,Recommended,34.191594,133.8232497,0.770833333,0.032007204,0.401420269,0.285828609,0.839839145
Shikoku,Kagawa,Takamatsu,https://www.japan-guide.com/e/e5400.html,Capital of Kagawa Prefecture.,3.4,859,Recommended,34.3425592,134.0465338,0.708333333,0.070317616,0.389325475,0.280292069,0.785805501
Shikoku,Kagawa,Shodoshima,https://www.japan-guide.com/e/e5430.html,Island in the Seto Inland Sea know for olives.,3.6,223,,34.4897754,134.2604024,0.75,0.018254748,0.384127374,0.27139919,0.831110838
Shikoku,Kagawa,Marugame,https://www.japan-guide.com/e/e5465.html,"Port city in Kagawa, known for its castle.",3,148,,34.2888128,133.7982421,0.625,0.012115259,0.318557629,0.223671824,0.752009659
Shikoku,Ehime,Matsuyama,https://www.japan-guide.com/e/e5500.html,Largest city of Shikoku with a beautiful castle.,3.8,809,Recommended,33.8395188,132.7653521,0.791666667,0.066224623,0.428945645,0.311161421,0.841404715
Shikoku,Ehime,Uchiko,https://www.japan-guide.com/e/e5550.html,Countryside town formerly known for its wax.,3.6,126,Recommended,33.5495987,132.6500056,0.75,0.010314342,0.380157171,0.267528242,0.83388998
Shikoku,Ehime,Ozu,https://www.japan-guide.com/e/e5525.html,"Small city with nice castle, old town and villa.",3.2,55,Recommended,33.506488,132.5446842,0.666666667,0.004502292,0.335584479,0.235284327,0.781757531
Shikoku,Ehime,Uwajima,https://www.japan-guide.com/e/e5575.html,Secluded port town with original castle.,3.2,82,,33.2232315,132.5606514,0.666666667,0.006712508,0.336689587,0.236242087,0.780983955
Shikoku,Kochi,Kochi,https://www.japan-guide.com/e/e5600.html,Nice city with a southern flair.,3.7,724,Recommended,33.5680384,133.5394221,0.770833333,0.059266536,0.415049935,0.29948667,0.830298379
Shikoku,Tokushima,Iya Valley,https://www.japan-guide.com/e/e7825.html,Remote valley in the center of Shikoku.,4.2,151,Recommended,33.9071476,133.8141785,0.875,0.012360838,0.443680419,0.313280227,0.914423707
Shikoku,Tokushima,Naruto,https://www.japan-guide.com/e/e7850.html,City well known for its whirlpools.,3.3,432,,34.1725784,134.608408,0.6875,0.035363458,0.361431729,0.256428045,0.78449779
Shikoku,Tokushima,Tokushima,https://www.japan-guide.com/e/e7800.html,A city best known for its dance festival.,3.1,453,,34.0698307,134.5550353,0.645833333,0.037082515,0.341457924,0.241608597,0.756812787
Kyushu,Fukuoka,Fukuoka,https://www.japan-guide.com/e/e2161.html,Kyushu's largest and most vibrant city.,3.7,2757,Recommended,33.5898988,130.4017509,0.770833333,0.225687623,0.498260478,0.382870569,0.772050999
Kyushu,Fukuoka,Dazaifu,https://www.japan-guide.com/e/e4850.html,Historic town south of Fukuoka.,3.7,965,Recommended,33.5129189,130.5242217,0.770833333,0.078994761,0.424914047,0.309371333,0.8233935
Kyushu,Fukuoka,Munakata Taisha,https://www.japan-guide.com/e/e4840.html,"Three shrines and a sacred, off-limit island.",3.4,20,,33.8305822,130.5145484,0.708333333,0.001637197,0.354985265,0.24867046,0.809843648
Kyushu,Fukuoka,Kitakyushu,https://www.japan-guide.com/e/e4875.html,Industrial city in the north of Kyushu.,3.1,407,,33.8829996,130.8749015,0.645833333,0.033316961,0.339575147,0.240027849,0.75813073
Kyushu,Saga,Yutoku Inari Shrine,https://www.japan-guide.com/e/e8390.html,One of Japan's three best Inari shrines.,4.3,37,Recommended,33.0743974,130.1080648,0.895833333,0.003028815,0.449431074,0.31530532,0.931231582
Kyushu,Saga,Yoshinogari Park,https://www.japan-guide.com/e/e8325.html,Best archeological site about the Yayoi Period.,3.1,172,Recommended,33.3270916,130.3842637,0.645833333,0.014079895,0.329956614,0.231952289,0.764863703
Kyushu,Saga,Ureshino Onsen,https://www.japan-guide.com/e/e8380.html,Onsen town with very smooth hot spring waters.,3.6,32,,33.1066719,129.9989438,0.75,0.002619515,0.376309758,0.263777014,0.83658317
Kyushu,Saga,Karatsu,https://www.japan-guide.com/e/e8375.html,Coastal city known for castles and pottery.,3.2,74,,33.4503405,129.9679345,0.666666667,0.006057629,0.336362148,0.235958306,0.781213163
Kyushu,Saga,Takeo Onsen,https://www.japan-guide.com/e/e8385.html,Onsen town with smooth waters and long history.,2.9,37,,33.1964422,130.0230324,0.604166667,0.003028815,0.303597741,0.212647774,0.741648248
Kyushu,Nagasaki,Nagasaki,https://www.japan-guide.com/e/e2162.html,Attractive port city with a moving history.,4.1,2078,Highly Recommended,32.7501611,129.8781002,0.854166667,0.170104781,0.512135724,0.393401925,0.84567166
Kyushu,Nagasaki,Huis Ten Bosch,https://www.japan-guide.com/e/e4477.html,Amusement Park themed after a Dutch town.,3.5,215,Recommended,33.0862043,129.7883148,0.729166667,0.017599869,0.373383268,0.263549938,0.817798379
Kyushu,Nagasaki,Shimabara Peninsula,https://www.japan-guide.com/e/e4450.html,Peninsula with active volcano near Nagasaki City.,3.7,165,,32.7361999,130.2902345,0.770833333,0.013506876,0.392170105,0.276559174,0.84631426
Kyushu,Nagasaki,Hirado,https://www.japan-guide.com/e/e4490.html,Former site of the Dutch trading post.,3.5,33,,33.3680705,129.5539153,0.729166667,0.002701375,0.365934021,0.256488673,0.823012852
Kyushu,Kumamoto,Kurokawa Onsen,https://www.japan-guide.com/e/e4575.html,Hot spring town with attractive town and baths.,4.3,235,Highly Recommended,33.0777131,131.1419381,0.895833333,0.019237066,0.4575352,0.32474325,0.925558694
Kyushu,Kumamoto,Aso,https://www.japan-guide.com/e/e4550.html,Active volcano with a huge ancient caldera.,3.8,1093,Recommended,32.9524903,131.1214674,0.791666667,0.089472823,0.440569745,0.323124557,0.833267845
Kyushu,Kumamoto,Kumamoto,https://www.japan-guide.com/e/e4500.html,Modern city most famous for its castle.,3.7,1413,Recommended,32.8033909,130.7082737,0.770833333,0.115667976,0.443250655,0.327746142,0.810557875
Kyushu,Kumamoto,Amakusa,https://www.japan-guide.com/e/e4590.html,Remote islands with a large Christian population.,4,48,,32.4585127,130.1930487,0.833333333,0.003929273,0.418631303,0.293795023,0.890291421
Kyushu,Kumamoto,Minamata,https://www.japan-guide.com/e/e4525.html,From pollution site to environmental model city.,2.9,67,,32.2123376,130.4087616,0.604166667,0.00548461,0.304825639,0.213612186,0.74078872
Kyushu,Oita,Yufuin,https://www.japan-guide.com/e/e4750.html,Rural yet trendy hot spring town near Beppu.,4.1,520,Recommended,33.2624524,131.3550013,0.854166667,0.042567125,0.448366896,0.322591956,0.89030984
Kyushu,Oita,Beppu,https://www.japan-guide.com/e/e4700.html,Japan's capital city of hot springs.,3.8,1473,Recommended,33.2845752,131.4913063,0.791666667,0.120579568,0.456123117,0.339131569,0.822380485
Kyushu,Oita,Usuki,https://www.japan-guide.com/e/e4740.html,Town known for its unique stone Buddhas.,3.7,53,,33.1261032,131.8048454,0.770833333,0.004338572,0.387585953,0.271965472,0.849523166
Kyushu,Miyazaki,Takachiho,https://www.japan-guide.com/e/e8050.html,Mountain town steeped in mythology.,4.2,295,Recommended,32.731215,131.32383,0.875,0.024148657,0.449574329,0.319984549,0.91029797
Kyushu,Miyazaki,Udo Shrine,https://www.japan-guide.com/e/e8032.html,Shrine constructed in a cliff side cave.,3.6,102,Recommended,31.6475389,131.4617524,0.75,0.008349705,0.379174853,0.266570481,0.834577603
Kyushu,Miyazaki,Miyazaki,https://www.japan-guide.com/e/e8000.html,City in southeastern Kyushu.,3.4,589,,31.9076334,131.4204022,0.708333333,0.048215455,0.378274394,0.270115866,0.793541257
Kyushu,Kagoshima,Yakushima,https://www.japan-guide.com/e/e4650.html,Subtropical island with ancient cedar forest.,4.7,311,Must Visit,30.347925,130.5244832,0.979166667,0.025458415,0.502312541,0.358911554,0.977547888
Kyushu,Kagoshima,Kirishima,https://www.japan-guide.com/e/e4625.html,National Park with volcanic mountain range.,3.8,294,Recommended,31.7410148,130.7632406,0.791666667,0.024066798,0.407866732,0.289467706,0.856159954
Kyushu,Kagoshima,Kagoshima,https://www.japan-guide.com/e/e4600.html,Southernmost of Kyushu's major cities.,3.8,1272,Recommended,31.596793,130.5571949,0.791666667,0.104125737,0.447896202,0.330664702,0.828139325
Kyushu,Kagoshima,Satsuma Peninsula,https://www.japan-guide.com/e/e4675.html,Rural peninsula with hot springs in southern Kyushu.,3.8,178,Recommended,31.4996295,130.4172,0.791666667,0.014571054,0.403118861,0.284581355,0.859483464
Kyushu,Fukuoka,Fukuoka,https://www.japan-guide.com/e/e2161.html,Kyushu's largest and most vibrant city.,3.7,2757,Recommended,33.5898988,130.4017509,0.770833333,0.225687623,0.498260478,0.382870569,0.772050999
Kyushu,Fukuoka,Dazaifu,https://www.japan-guide.com/e/e4850.html,Historic town south of Fukuoka.,3.7,965,Recommended,33.5129189,130.5242217,0.770833333,0.078994761,0.424914047,0.309371333,0.8233935
Kyushu,Fukuoka,Munakata Taisha,https://www.japan-guide.com/e/e4840.html,"Three shrines and a sacred, off-limit island.",3.4,20,,33.8305822,130.5145484,0.708333333,0.001637197,0.354985265,0.24867046,0.809843648
Kyushu,Fukuoka,Kitakyushu,https://www.japan-guide.com/e/e4875.html,Industrial city in the north of Kyushu.,3.1,407,,33.8829996,130.8749015,0.645833333,0.033316961,0.339575147,0.240027849,0.75813073
Kyushu,Saga,Yutoku Inari Shrine,https://www.japan-guide.com/e/e8390.html,One of Japan's three best Inari shrines.,4.3,37,Recommended,33.0743974,130.1080648,0.895833333,0.003028815,0.449431074,0.31530532,0.931231582
Kyushu,Saga,Yoshinogari Park,https://www.japan-guide.com/e/e8325.html,Best archeological site about the Yayoi Period.,3.1,172,Recommended,33.3270916,130.3842637,0.645833333,0.014079895,0.329956614,0.231952289,0.764863703
Kyushu,Saga,Ureshino Onsen,https://www.japan-guide.com/e/e8380.html,Onsen town with very smooth hot spring waters.,3.6,32,,33.1066719,129.9989438,0.75,0.002619515,0.376309758,0.263777014,0.83658317
Kyushu,Saga,Karatsu,https://www.japan-guide.com/e/e8375.html,Coastal city known for castles and pottery.,3.2,74,,33.4503405,129.9679345,0.666666667,0.006057629,0.336362148,0.235958306,0.781213163
Kyushu,Saga,Takeo Onsen,https://www.japan-guide.com/e/e8385.html,Onsen town with smooth waters and long history.,2.9,37,,33.1964422,130.0230324,0.604166667,0.003028815,0.303597741,0.212647774,0.741648248
Kyushu,Nagasaki,Nagasaki,https://www.japan-guide.com/e/e2162.html,Attractive port city with a moving history.,4.1,2078,Highly Recommended,32.7501611,129.8781002,0.854166667,0.170104781,0.512135724,0.393401925,0.84567166
Kyushu,Nagasaki,Huis Ten Bosch,https://www.japan-guide.com/e/e4477.html,Amusement Park themed after a Dutch town.,3.5,215,Recommended,33.0862043,129.7883148,0.729166667,0.017599869,0.373383268,0.263549938,0.817798379
Kyushu,Nagasaki,Shimabara Peninsula,https://www.japan-guide.com/e/e4450.html,Peninsula with active volcano near Nagasaki City.,3.7,165,,32.7361999,130.2902345,0.770833333,0.013506876,0.392170105,0.276559174,0.84631426
Kyushu,Nagasaki,Hirado,https://www.japan-guide.com/e/e4490.html,Former site of the Dutch trading post.,3.5,33,,33.3680705,129.5539153,0.729166667,0.002701375,0.365934021,0.256488673,0.823012852
Kyushu,Kumamoto,Kurokawa Onsen,https://www.japan-guide.com/e/e4575.html,Hot spring town with attractive town and baths.,4.3,235,Highly Recommended,33.0777131,131.1419381,0.895833333,0.019237066,0.4575352,0.32474325,0.925558694
Kyushu,Kumamoto,Aso,https://www.japan-guide.com/e/e4550.html,Active volcano with a huge ancient caldera.,3.8,1093,Recommended,32.9524903,131.1214674,0.791666667,0.089472823,0.440569745,0.323124557,0.833267845
Kyushu,Kumamoto,Kumamoto,https://www.japan-guide.com/e/e4500.html,Modern city most famous for its castle.,3.7,1413,Recommended,32.8033909,130.7082737,0.770833333,0.115667976,0.443250655,0.327746142,0.810557875
Kyushu,Kumamoto,Amakusa,https://www.japan-guide.com/e/e4590.html,Remote islands with a large Christian population.,4,48,,32.4585127,130.1930487,0.833333333,0.003929273,0.418631303,0.293795023,0.890291421
Kyushu,Kumamoto,Minamata,https://www.japan-guide.com/e/e4525.html,From pollution site to environmental model city.,2.9,67,,32.2123376,130.4087616,0.604166667,0.00548461,0.304825639,0.213612186,0.74078872
Kyushu,Oita,Yufuin,https://www.japan-guide.com/e/e4750.html,Rural yet trendy hot spring town near Beppu.,4.1,520,Recommended,33.2624524,131.3550013,0.854166667,0.042567125,0.448366896,0.322591956,0.89030984
Kyushu,Oita,Beppu,https://www.japan-guide.com/e/e4700.html,Japan's capital city of hot springs.,3.8,1473,Recommended,33.2845752,131.4913063,0.791666667,0.120579568,0.456123117,0.339131569,0.822380485
Kyushu,Oita,Usuki,https://www.japan-guide.com/e/e4740.html,Town known for its unique stone Buddhas.,3.7,53,,33.1261032,131.8048454,0.770833333,0.004338572,0.387585953,0.271965472,0.849523166
Kyushu,Miyazaki,Takachiho,https://www.japan-guide.com/e/e8050.html,Mountain town steeped in mythology.,4.2,295,Recommended,32.731215,131.32383,0.875,0.024148657,0.449574329,0.319984549,0.91029797
Kyushu,Miyazaki,Udo Shrine,https://www.japan-guide.com/e/e8032.html,Shrine constructed in a cliff side cave.,3.6,102,Recommended,31.6475389,131.4617524,0.75,0.008349705,0.379174853,0.266570481,0.834577603
Kyushu,Miyazaki,Miyazaki,https://www.japan-guide.com/e/e8000.html,City in southeastern Kyushu.,3.4,589,,31.9076334,131.4204022,0.708333333,0.048215455,0.378274394,0.270115866,0.793541257
Kyushu,Kagoshima,Yakushima,https://www.japan-guide.com/e/e4650.html,Subtropical island with ancient cedar forest.,4.7,311,Must Visit,30.347925,130.5244832,0.979166667,0.025458415,0.502312541,0.358911554,0.977547888
Kyushu,Kagoshima,Kirishima,https://www.japan-guide.com/e/e4625.html,National Park with volcanic mountain range.,3.8,294,Recommended,31.7410148,130.7632406,0.791666667,0.024066798,0.407866732,0.289467706,0.856159954
Kyushu,Kagoshima,Kagoshima,https://www.japan-guide.com/e/e4600.html,Southernmost of Kyushu's major cities.,3.8,1272,Recommended,31.596793,130.5571949,0.791666667,0.104125737,0.447896202,0.330664702,0.828139325
Kyushu,Kagoshima,Satsuma Peninsula,https://www.japan-guide.com/e/e4675.html,Rural peninsula with hot springs in southern Kyushu.,3.8,178,Recommended,31.4996295,130.4172,0.791666667,0.014571054,0.403118861,0.284581355,0.859483464
Okinawa,Okinawa,Kerama Islands,https://www.japan-guide.com/e/e7190.html,Small island group with beautiful beaches.,4.5,39,Highly Recommended,26.230173,127.3704054,0.9375,0.003192534,0.470346267,0.330070451,0.958257613
Okinawa,Okinawa,Okinawa Island,https://www.japan-guide.com/e/e7101.html,Okinawa Prefecture's main island.,4.5,2016,Highly Recommended,26.4748948,127.9114687,0.9375,0.16502947,0.551264735,0.428689833,0.901614686
Okinawa,Okinawa,Miyako Island,https://www.japan-guide.com/e/e7300.html,Subtropical island with excellent beaches.,4.4,169,Highly Recommended,24.813957,125.305579,0.916666667,0.013834316,0.465250491,0.32907628,0.940991323
Okinawa,Okinawa,Kume Island,https://www.japan-guide.com/e/e7175.html,Small island west of Okinawa Honto.,4,56,Recommended,26.341139,126.7890529,0.833333333,0.004584152,0.418958743,0.294149749,0.890062213
